[
  {
    "name": "Al-Dhafra",
    "lat": 24.2577778,
    "lon": 54.5341667,
    "alt": 52.0
  },
  {
    "name": "Anapa-Vityazevo",
    "lat": 45.01317473377168,
    "lon": 37.35978347755592,
    "alt": 43.00004196166992
  },
  {
    "name": "Beslan",
    "lat": 43.20850098738094,
    "lon": 44.588922553542936,
    "alt": 524.0057983398438
  },
  {
    "name": "Gelendzhik",
    "lat": 44.56767458600406,
    "lon": 38.0041463505281,
    "alt": 22.00992202758789
  },
  {
    "name": "Gudauta",
    "lat": 43.124233340197144,
    "lon": 40.56417576840064,
    "alt": 21.01003074645996
  },
  {
    "name": "Kobuleti",
    "lat": 41.93210535345338,
    "lon": 41.876483823101026,
    "alt": 18.01001739501953
  },
  {
    "name": "Krasnodar-Center",
    "lat": 45.087429883845076,
    "lon": 38.92520230077506,
    "alt": 30.010032653808594
  },
  {
    "name": "Krasnodar-Pashkovsky",
    "lat": 45.0460996415433,
    "lon": 39.20306690632454,
    "alt": 34.01003646850586
  },
  {
    "name": "Krymsk",
    "lat": 44.961383022734175,
    "lon": 37.985886938697085,
    "alt": 20.010303497314453
  },
  {
    "name": "Kutaisi",
    "lat": 42.179154028210135,
    "lon": 42.49568635853585,
    "alt": 45.010047912597656
  },
  {
    "name": "Maykop-Khanskaya",
    "lat": 44.67144025735508,
    "lon": 40.021427482235985,
    "alt": 180.01019287109375
  },
  {
    "name": "Mineralnye Vody",
    "lat": 44.21864682380681,
    "lon": 43.100679733081456,
    "alt": 320.01031494140625
  },
  {
    "name": "Mozdok",
    "lat": 43.79130325093825,
    "lon": 44.62032726210201,
    "alt": 154.61184692382812
  },
  {
    "name": "Nalchik",
    "lat": 43.50998473505967,
    "lon": 43.62488628801948,
    "alt": 430.01043701171875
  },
  {
    "name": "Novorossiysk",
    "lat": 44.6733296041269,
    "lon": 37.786226060479564,
    "alt": 40.010040283203125
  },
  {
    "name": "Senaki-Kolkhi",
    "lat": 42.23872808157328,
    "lon": 42.061021312855914,
    "alt": 13.23994255065918
  },
  {
    "name": "Sochi-Adler",
    "lat": 43.43937843405085,
    "lon": 39.924231880466095,
    "alt": 30.010034561157227
  },
  {
    "name": "Soganlug",
    "lat": 41.64116326678661,
    "lon": 44.94718306531669,
    "alt": 449.4102478027344
  },
  {
    "name": "Sukhumi-Babushara",
    "lat": 42.852741071634995,
    "lon": 41.142447588488196,
    "alt": 13.339526176452637
  },
  {
    "name": "Tbilisi-Lochini",
    "lat": 41.67471935873423,
    "lon": 44.94687659192431,
    "alt": 479.69482421875
  },
  {
    "name": "Vaziani",
    "lat": 41.637735936261556,
    "lon": 45.01909093846007,
    "alt": 464.5004577636719
  }
]